$GPRMC,194018.371,V,4154.928,N,08002.497,W,2.6,1.86,211118,,E*75
$GPGGA,194019.371,4154.928,N,08002.497,W,0,00,,,M,,M,,*57
$GPGLL,4154.928,N,08002.497,W,194020.371,V*3D
$GPRMC,194021.371,V,4154.926,N,08002.496,W,10.2,1.84,211118,,E*45
$GPGGA,194022.371,4154.926,N,08002.496,W,0,00,,,M,,M,,*50
$GPGLL,4154.926,N,08002.496,W,194023.371,V*31
$GPRMC,194024.371,V,4154.924,N,08002.496,W,68.2,1.85,211118,,E*4C
$GPGGA,194025.371,4154.924,N,08002.496,W,0,00,,,M,,M,,*55
$GPGLL,4154.924,N,08002.496,W,194026.371,V*36
$GPRMC,194027.371,V,4154.923,N,08002.496,W,68.8,1.88,211118,,E*4F
$GPGGA,194028.371,4154.923,N,08002.496,W,0,00,,,M,,M,,*5F
$GPGLL,4154.923,N,08002.496,W,194029.371,V*3E
$GPRMC,194030.371,V,4154.921,N,08002.495,W,34.3,1.91,211118,,E*42
$GPGGA,194031.371,4154.921,N,08002.495,W,0,00,,,M,,M,,*56
$GPGLL,4154.921,N,08002.495,W,194032.371,V*35
$GPRMC,194033.371,V,4154.919,N,08002.495,W,39.3,1.99,211118,,E*4F
$GPGGA,194034.371,4154.919,N,08002.495,W,0,00,,,M,,M,,*58
$GPGLL,4154.919,N,08002.495,W,194035.371,V*39
$GPRMC,194036.371,V,4154.917,N,08002.495,W,34.4,1.95,211118,,E*42
$GPGGA,194037.371,4154.917,N,08002.495,W,0,00,,,M,,M,,*55
$GPGLL,4154.917,N,08002.495,W,194038.371,V*3A
$GPRMC,194039.371,V,4154.916,N,08002.495,W,10.5,2.01,211118,,E*45
$GPGGA,194040.371,4154.916,N,08002.495,W,0,00,,,M,,M,,*54
$GPGLL,4154.916,N,08002.495,W,194041.371,V*35
$GPRMC,194042.371,V,4154.914,N,08002.494,W,58.9,1.69,211118,,E*47
$GPGGA,194043.371,4154.914,N,08002.494,W,0,00,,,M,,M,,*54
$GPGLL,4154.914,N,08002.494,W,194044.371,V*33
$GPRMC,194045.371,V,4154.912,N,08002.494,W,34.6,1.70,211118,,E*4B
$GPGGA,194046.371,4154.912,N,08002.494,W,0,00,,,M,,M,,*57
$GPGLL,4154.912,N,08002.494,W,194047.371,V*36
$GPRMC,194048.371,V,4154.911,N,08002.493,W,51.5,1.73,211118,,E*41
$GPGGA,194049.371,4154.911,N,08002.493,W,0,00,,,M,,M,,*5C
$GPGLL,4154.911,N,08002.493,W,194050.371,V*34
$GPRMC,194051.371,V,4154.909,N,08002.493,W,14.1,1.97,211118,,E*4F
$GPGGA,194052.371,4154.909,N,08002.493,W,0,00,,,M,,M,,*5F
$GPGLL,4154.909,N,08002.493,W,194053.371,V*3E
$GPRMC,194054.371,V,4154.907,N,08002.493,W,11.2,2.01,211118,,E*4E
$GPGGA,194055.371,4154.907,N,08002.493,W,0,00,,,M,,M,,*56
$GPGLL,4154.907,N,08002.493,W,194056.371,V*35
$GPRMC,194057.371,V,4154.905,N,08002.493,W,61.2,1.92,211118,,E*41
$GPGGA,194058.371,4154.905,N,08002.493,W,0,00,,,M,,M,,*59
$GPGLL,4154.905,N,08002.493,W,194059.371,V*38
$GPRMC,194100.371,V,4154.903,N,08002.493,W,13.0,2.00,211118,,E*4B
$GPGGA,194101.371,4154.903,N,08002.493,W,0,00,,,M,,M,,*52
$GPGLL,4154.903,N,08002.493,W,194102.371,V*31
$GPRMC,194103.371,V,4154.902,N,08002.492,W,6.2,1.94,211118,,E*70
$GPGGA,194104.371,4154.902,N,08002.492,W,0,00,,,M,,M,,*57
$GPGLL,4154.902,N,08002.492,W,194105.371,V*36
$GPRMC,194106.371,V,4154.900,N,08002.492,W,83.8,1.95,211118,,E*41
$GPGGA,194107.371,4154.900,N,08002.492,W,0,00,,,M,,M,,*56
$GPGLL,4154.900,N,08002.492,W,194108.371,V*39
$GPRMC,194109.371,V,4154.898,N,08002.492,W,32.5,2.01,211118,,E*47
$GPGGA,194110.371,4154.898,N,08002.492,W,0,00,,,M,,M,,*50
$GPGLL,4154.898,N,08002.492,W,194111.371,V*31
$GPRMC,194112.371,V,4154.896,N,08002.492,W,64.1,1.96,211118,,E*49
$GPGGA,194113.371,4154.896,N,08002.492,W,0,00,,,M,,M,,*5D
$GPGLL,4154.896,N,08002.492,W,194114.371,V*3A
$GPRMC,194115.371,V,4154.895,N,08002.492,W,38.6,2.07,211118,,E*48
$GPGGA,194116.371,4154.895,N,08002.492,W,0,00,,,M,,M,,*5B
$GPGLL,4154.895,N,08002.492,W,194117.371,V*3A
$GPRMC,194118.371,V,4154.893,N,08002.493,W,21.7,2.07,211118,,E*4B
$GPGGA,194119.371,4154.893,N,08002.493,W,0,00,,,M,,M,,*53
$GPGLL,4154.893,N,08002.493,W,194120.371,V*39
$GPRMC,194121.371,V,4154.891,N,08002.493,W,29.7,2.00,211118,,E*4C
$GPGGA,194122.371,4154.891,N,08002.493,W,0,00,,,M,,M,,*59
$GPGLL,4154.891,N,08002.493,W,194123.371,V*38
$GPRMC,194124.371,V,4154.889,N,08002.493,W,20.1,2.02,211118,,E*4D
$GPGGA,194125.371,4154.889,N,08002.493,W,0,00,,,M,,M,,*57
$GPGLL,4154.889,N,08002.493,W,194126.371,V*34
$GPRMC,194127.371,V,4154.887,N,08002.493,W,51.4,2.07,211118,,E*46
$GPGGA,194128.371,4154.887,N,08002.493,W,0,00,,,M,,M,,*54
$GPGLL,4154.887,N,08002.493,W,194129.371,V*35
$GPRMC,194130.371,V,4154.886,N,08002.493,W,65.3,2.18,211118,,E*4F
$GPGGA,194131.371,4154.886,N,08002.493,W,0,00,,,M,,M,,*5D
$GPGLL,4154.886,N,08002.493,W,194132.371,V*3E
$GPRMC,194133.371,V,4154.884,N,08002.494,W,0.5,2.38,211118,,E*7E
$GPGGA,194134.371,4154.884,N,08002.494,W,0,00,,,M,,M,,*5D
$GPGLL,4154.884,N,08002.494,W,194135.371,V*3C
$GPRMC,194136.371,V,4154.883,N,08002.495,W,91.8,2.44,211118,,E*43
$GPGGA,194137.371,4154.883,N,08002.495,W,0,00,,,M,,M,,*58
$GPGLL,4154.883,N,08002.495,W,194138.371,V*37
$GPRMC,194139.371,V,4154.882,N,08002.497,W,44.8,2.54,211118,,E*46
$GPGGA,194140.371,4154.882,N,08002.497,W,0,00,,,M,,M,,*5B
$GPGLL,4154.882,N,08002.497,W,194141.371,V*3A
$GPRMC,194142.371,V,4154.880,N,08002.498,W,90.6,2.55,211118,,E*41
$GPGGA,194143.371,4154.880,N,08002.498,W,0,00,,,M,,M,,*55
$GPGLL,4154.880,N,08002.498,W,194144.371,V*32
$GPRMC,194145.371,V,4154.879,N,08002.499,W,58.5,2.45,211118,,E*47
$GPGGA,194146.371,4154.879,N,08002.499,W,0,00,,,M,,M,,*57
$GPGLL,4154.879,N,08002.499,W,194147.371,V*36
$GPRMC,194148.371,V,4154.878,N,08002.500,W,8.8,2.38,211118,,E*78
$GPGGA,194149.371,4154.878,N,08002.500,W,0,00,,,M,,M,,*58
$GPGLL,4154.878,N,08002.500,W,194150.371,V*30
$GPRMC,194151.371,V,4154.876,N,08002.501,W,19.3,2.33,211118,,E*4F
$GPGGA,194152.371,4154.876,N,08002.501,W,0,00,,,M,,M,,*5D
$GPGLL,4154.876,N,08002.501,W,194153.371,V*3C
$GPRMC,194154.371,V,4154.875,N,08002.502,W,2.9,2.44,211118,,E*7A
$GPGGA,194155.371,4154.875,N,08002.502,W,0,00,,,M,,M,,*5A
$GPGLL,4154.875,N,08002.502,W,194156.371,V*39
$GPRMC,194157.371,V,4154.873,N,08002.504,W,46.8,2.51,211118,,E*4C
$GPGGA,194158.371,4154.873,N,08002.504,W,0,00,,,M,,M,,*57
$GPGLL,4154.873,N,08002.504,W,194159.371,V*36
$GPRMC,194200.371,V,4154.872,N,08002.505,W,81.1,2.45,211118,,E*4A
$GPGGA,194201.371,4154.872,N,08002.505,W,0,00,,,M,,M,,*58
$GPGLL,4154.872,N,08002.505,W,194202.371,V*3B
$GPRMC,194203.371,V,4154.871,N,08002.506,W,70.3,2.39,211118,,E*4E
$GPGGA,194204.371,4154.871,N,08002.506,W,0,00,,,M,,M,,*5D
$GPGLL,4154.871,N,08002.506,W,194205.371,V*3C
$GPRMC,194206.371,V,4154.869,N,08002.507,W,86.9,2.49,211118,,E*47
$GPGGA,194207.371,4154.869,N,08002.507,W,0,00,,,M,,M,,*56
$GPGLL,4154.869,N,08002.507,W,194208.371,V*39
$GPRMC,194209.371,V,4154.868,N,08002.508,W,68.1,2.49,211118,,E*4E
$GPGGA,194210.371,4154.868,N,08002.508,W,0,00,,,M,,M,,*5E
$GPGLL,4154.868,N,08002.508,W,194211.371,V*3F
$GPRMC,194212.371,V,4154.867,N,08002.510,W,66.6,2.54,211118,,E*47
$GPGGA,194213.371,4154.867,N,08002.510,W,0,00,,,M,,M,,*5B
$GPGLL,4154.867,N,08002.510,W,194214.371,V*3C
$GPRMC,194215.371,V,4154.865,N,08002.511,W,96.7,2.50,211118,,E*49
$GPGGA,194216.371,4154.865,N,08002.511,W,0,00,,,M,,M,,*5D
$GPGLL,4154.865,N,08002.511,W,194217.371,V*3C
$GPRMC,194218.371,V,4154.864,N,08002.512,W,15.8,2.55,211118,,E*47
$GPGGA,194219.371,4154.864,N,08002.512,W,0,00,,,M,,M,,*50
$GPGLL,4154.864,N,08002.512,W,194220.371,V*3A
$GPRMC,194221.371,V,4154.863,N,08002.514,W,59.2,2.48,211118,,E*42
$GPGGA,194222.371,4154.863,N,08002.514,W,0,00,,,M,,M,,*59
$GPGLL,4154.863,N,08002.514,W,194223.371,V*38
$GPRMC,194224.371,V,4154.862,N,08002.515,W,56.3,2.59,211118,,E*49
$GPGGA,194225.371,4154.862,N,08002.515,W,0,00,,,M,,M,,*5E
$GPGLL,4154.862,N,08002.515,W,194226.371,V*3D
$GPRMC,194227.371,V,4154.861,N,08002.517,W,3.2,2.65,211118,,E*75
$GPGGA,194228.371,4154.861,N,08002.517,W,0,00,,,M,,M,,*52
$GPGLL,4154.861,N,08002.517,W,194229.371,V*33
$GPRMC,194230.371,V,4154.860,N,08002.518,W,4.4,2.81,211118,,E*76
$GPGGA,194231.371,4154.860,N,08002.518,W,0,00,,,M,,M,,*54
$GPGLL,4154.860,N,08002.518,W,194232.371,V*37
$GPRMC,194233.371,V,4154.860,N,08002.520,W,41.1,2.87,211118,,E*4C
$GPGGA,194234.371,4154.860,N,08002.520,W,0,00,,,M,,M,,*5A
$GPGLL,4154.860,N,08002.520,W,194235.371,V*3B
$GPRMC,194236.371,V,4154.860,N,08002.522,W,12.3,2.84,211118,,E*4C
$GPGGA,194237.371,4154.860,N,08002.522,W,0,00,,,M,,M,,*5B
$GPGLL,4154.860,N,08002.522,W,194238.371,V*34
$GPRMC,194239.371,V,4154.859,N,08002.524,W,67.4,2.85,211118,,E*4B
$GPGGA,194240.371,4154.859,N,08002.524,W,0,00,,,M,,M,,*57
$GPGLL,4154.859,N,08002.524,W,194241.371,V*36
$GPRMC,194242.371,V,4154.859,N,08002.525,W,3.5,2.86,211118,,E*76
$GPGGA,194243.371,4154.859,N,08002.525,W,0,00,,,M,,M,,*55
$GPGLL,4154.859,N,08002.525,W,194244.371,V*32
$GPRMC,194245.371,V,4154.858,N,08002.527,W,31.5,2.79,211118,,E*43
$GPGGA,194246.371,4154.858,N,08002.527,W,0,00,,,M,,M,,*53
$GPGLL,4154.858,N,08002.527,W,194247.371,V*32
$GPRMC,194248.371,V,4154.858,N,08002.529,W,47.2,2.82,211118,,E*42
$GPGGA,194249.371,4154.858,N,08002.529,W,0,00,,,M,,M,,*52
$GPGLL,4154.858,N,08002.529,W,194250.371,V*3A
$GPRMC,194251.371,V,4154.857,N,08002.531,W,93.4,2.93,211118,,E*43
$GPGGA,194252.371,4154.857,N,08002.531,W,0,00,,,M,,M,,*5E
$GPGLL,4154.857,N,08002.531,W,194253.371,V*3F
$GPRMC,194254.371,V,4154.857,N,08002.532,W,39.7,3.00,211118,,E*4D
$GPGGA,194255.371,4154.857,N,08002.532,W,0,00,,,M,,M,,*5A
$GPGLL,4154.857,N,08002.532,W,194256.371,V*39
$GPRMC,194257.371,V,4154.857,N,08002.534,W,87.2,2.99,211118,,E*49
$GPGGA,194258.371,4154.857,N,08002.534,W,0,00,,,M,,M,,*51
$GPGLL,4154.857,N,08002.534,W,194259.371,V*30
$GPRMC,194300.371,V,4154.857,N,08002.536,W,2.3,2.91,211118,,E*7C
$GPGGA,194301.371,4154.857,N,08002.536,W,0,00,,,M,,M,,*5E
$GPGLL,4154.857,N,08002.536,W,194302.371,V*3D
$GPRMC,194303.371,V,4154.857,N,08002.538,W,52.6,2.90,211118,,E*40
$GPGGA,194304.371,4154.857,N,08002.538,W,0,00,,,M,,M,,*55
$GPGLL,4154.857,N,08002.538,W,194305.371,V*34
$GPRMC,194306.371,V,4154.857,N,08002.540,W,25.5,2.96,211118,,E*4F
$GPGGA,194307.371,4154.857,N,08002.540,W,0,00,,,M,,M,,*59
$GPGLL,4154.857,N,08002.540,W,194308.371,V*36
$GPRMC,194309.371,V,4154.857,N,08002.541,W,7.3,3.05,211118,,E*7C
$GPGGA,194310.371,4154.857,N,08002.541,W,0,00,,,M,,M,,*5E
$GPGLL,4154.857,N,08002.541,W,194311.371,V*3F
$GPRMC,194312.371,V,4154.857,N,08002.543,W,75.9,3.14,211118,,E*4B
$GPGGA,194313.371,4154.857,N,08002.543,W,0,00,,,M,,M,,*5F
$GPGLL,4154.857,N,08002.543,W,194314.371,V*38
$GPRMC,194315.371,V,4154.858,N,08002.545,W,51.7,3.24,211118,,E*4E
$GPGGA,194316.371,4154.858,N,08002.545,W,0,00,,,M,,M,,*53
$GPGLL,4154.858,N,08002.545,W,194317.371,V*32
$GPRMC,194318.371,V,4154.859,N,08002.546,W,29.5,3.32,211118,,E*4B
$GPGGA,194319.371,4154.859,N,08002.546,W,0,00,,,M,,M,,*5E
$GPGLL,4154.859,N,08002.546,W,194320.371,V*34
$GPRMC,194321.371,V,4154.860,N,08002.548,W,76.1,3.33,211118,,E*4A
$GPGGA,194322.371,4154.860,N,08002.548,W,0,00,,,M,,M,,*52
$GPGLL,4154.860,N,08002.548,W,194323.371,V*33
$GPRMC,194324.371,V,4154.861,N,08002.549,W,20.6,3.39,211118,,E*41
$GPGGA,194325.371,4154.861,N,08002.549,W,0,00,,,M,,M,,*55
$GPGLL,4154.861,N,08002.549,W,194326.371,V*36
$GPRMC,194327.371,V,4154.862,N,08002.551,W,64.6,3.43,211118,,E*45
$GPGGA,194328.371,4154.862,N,08002.551,W,0,00,,,M,,M,,*52
$GPGLL,4154.862,N,08002.551,W,194329.371,V*33
$GPRMC,194330.371,V,4154.863,N,08002.552,W,13.5,3.53,211118,,E*43
$GPGGA,194331.371,4154.863,N,08002.552,W,0,00,,,M,,M,,*58
$GPGLL,4154.863,N,08002.552,W,194332.371,V*3B
$GPRMC,194333.371,V,4154.865,N,08002.553,W,4.2,3.55,211118,,E*70
$GPGGA,194334.371,4154.865,N,08002.553,W,0,00,,,M,,M,,*5A
$GPGLL,4154.865,N,08002.553,W,194335.371,V*3B
$GPRMC,194336.371,V,4154.866,N,08002.554,W,98.8,3.50,211118,,E*4B
$GPGGA,194337.371,4154.866,N,08002.554,W,0,00,,,M,,M,,*5D
$GPGLL,4154.866,N,08002.554,W,194338.371,V*32
$GPRMC,194339.371,V,4154.867,N,08002.556,W,62.9,3.57,211118,,E*44
$GPGGA,194340.371,4154.867,N,08002.556,W,0,00,,,M,,M,,*5E
$GPGLL,4154.867,N,08002.556,W,194341.371,V*3F
$GPRMC,194342.371,V,4154.869,N,08002.557,W,48.7,3.54,211118,,E*42
$GPGGA,194343.371,4154.869,N,08002.557,W,0,00,,,M,,M,,*52
$GPGLL,4154.869,N,08002.557,W,194344.371,V*35
$GPRMC,194345.371,V,4154.870,N,08002.558,W,87.7,3.56,211118,,E*43
$GPGGA,194346.371,4154.870,N,08002.558,W,0,00,,,M,,M,,*50
$GPGLL,4154.870,N,08002.558,W,194347.371,V*31
$GPRMC,194348.371,V,4154.871,N,08002.559,W,60.0,3.50,211118,,E*46
$GPGGA,194349.371,4154.871,N,08002.559,W,0,00,,,M,,M,,*5F
$GPGLL,4154.871,N,08002.559,W,194350.371,V*37
$GPRMC,194351.371,V,4154.872,N,08002.561,W,55.7,3.44,211118,,E*42
$GPGGA,194352.371,4154.872,N,08002.561,W,0,00,,,M,,M,,*5D
$GPGLL,4154.872,N,08002.561,W,194353.371,V*3C
$GPRMC,194354.371,V,4154.874,N,08002.562,W,73.6,3.43,211118,,E*40
$GPGGA,194355.371,4154.874,N,08002.562,W,0,00,,,M,,M,,*5F
$GPGLL,4154.874,N,08002.562,W,194356.371,V*3C
$GPRMC,194357.371,V,4154.875,N,08002.563,W,11.2,3.53,211118,,E*42
$GPGGA,194358.371,4154.875,N,08002.563,W,0,00,,,M,,M,,*52
$GPGLL,4154.875,N,08002.563,W,194359.371,V*33
$GPRMC,194400.371,V,4154.876,N,08002.564,W,22.8,3.49,211118,,E*42
$GPGGA,194401.371,4154.876,N,08002.564,W,0,00,,,M,,M,,*5D
$GPGLL,4154.876,N,08002.564,W,194402.371,V*3E
$GPRMC,194403.371,V,4154.878,N,08002.566,W,86.2,3.57,211118,,E*46
$GPGGA,194404.371,4154.878,N,08002.566,W,0,00,,,M,,M,,*54
$GPGLL,4154.878,N,08002.566,W,194405.371,V*35
$GPRMC,194406.371,V,4154.879,N,08002.567,W,10.9,3.57,211118,,E*47
$GPGGA,194407.371,4154.879,N,08002.567,W,0,00,,,M,,M,,*57
$GPGLL,4154.879,N,08002.567,W,194408.371,V*38
$GPRMC,194409.371,V,4154.880,N,08002.568,W,68.1,3.46,211118,,E*46
$GPGGA,194410.371,4154.880,N,08002.568,W,0,00,,,M,,M,,*58
$GPGLL,4154.880,N,08002.568,W,194411.371,V*39
$GPRMC,194412.371,V,4154.881,N,08002.570,W,39.3,3.27,211118,,E*45
$GPGGA,194413.371,4154.881,N,08002.570,W,0,00,,,M,,M,,*53
$GPGLL,4154.881,N,08002.570,W,194414.371,V*34
$GPRMC,194415.371,V,4154.882,N,08002.571,W,23.4,3.30,211118,,E*4A
$GPGGA,194416.371,4154.882,N,08002.571,W,0,00,,,M,,M,,*54
$GPGLL,4154.882,N,08002.571,W,194417.371,V*35
$GPRMC,194418.371,V,4154.882,N,08002.573,W,91.3,3.23,211118,,E*49
$GPGGA,194419.371,4154.882,N,08002.573,W,0,00,,,M,,M,,*59
$GPGLL,4154.882,N,08002.573,W,194420.371,V*33
$GPRMC,194421.371,V,4154.883,N,08002.575,W,37.0,3.34,211118,,E*4D
$GPGGA,194422.371,4154.883,N,08002.575,W,0,00,,,M,,M,,*56
$GPGLL,4154.883,N,08002.575,W,194423.371,V*37
$GPRMC,194424.371,V,4154.884,N,08002.576,W,49.1,3.39,211118,,E*49
$GPGGA,194425.371,4154.884,N,08002.576,W,0,00,,,M,,M,,*55
$GPGLL,4154.884,N,08002.576,W,194426.371,V*36
$GPRMC,194427.371,V,4154.885,N,08002.578,W,40.7,3.08,211118,,E*48
$GPGGA,194428.371,4154.885,N,08002.578,W,0,00,,,M,,M,,*57
$GPGLL,4154.885,N,08002.578,W,194429.371,V*36
$GPRMC,194430.371,V,4154.885,N,08002.580,W,48.9,3.09,211118,,E*4E
$GPGGA,194431.371,4154.885,N,08002.580,W,0,00,,,M,,M,,*58
$GPGLL,4154.885,N,08002.580,W,194432.371,V*3B
$GPRMC,194433.371,V,4154.885,N,08002.581,W,42.5,3.06,211118,,E*45
$GPGGA,194434.371,4154.885,N,08002.581,W,0,00,,,M,,M,,*5C
$GPGLL,4154.885,N,08002.581,W,194435.371,V*3D
$GPRMC,194436.371,V,4154.885,N,08002.583,W,27.7,2.95,211118,,E*48
$GPGGA,194437.371,4154.885,N,08002.583,W,0,00,,,M,,M,,*5D
$GPGLL,4154.885,N,08002.583,W,194438.371,V*32
$GPRMC,194439.371,V,4154.885,N,08002.585,W,4.0,2.96,211118,,E*74
$GPGGA,194440.371,4154.885,N,08002.585,W,0,00,,,M,,M,,*5B
$GPGLL,4154.885,N,08002.585,W,194441.371,V*3A
$GPRMC,194442.371,V,4154.884,N,08002.587,W,54.9,2.86,211118,,E*46
$GPGGA,194443.371,4154.884,N,08002.587,W,0,00,,,M,,M,,*5B
$GPGLL,4154.884,N,08002.587,W,194444.371,V*3C
$GPRMC,194445.371,V,4154.884,N,08002.588,W,46.0,2.84,211118,,E*46
$GPGGA,194446.371,4154.884,N,08002.588,W,0,00,,,M,,M,,*51
$GPGLL,4154.884,N,08002.588,W,194447.371,V*30
$GPRMC,194448.371,V,4154.884,N,08002.590,W,21.4,2.91,211118,,E*43
$GPGGA,194449.371,4154.884,N,08002.590,W,0,00,,,M,,M,,*57
$GPGLL,4154.884,N,08002.590,W,194450.371,V*3F
$GPRMC,194451.371,V,4154.883,N,08002.592,W,74.7,2.88,211118,,E*45
$GPGGA,194452.371,4154.883,N,08002.592,W,0,00,,,M,,M,,*58
$GPGLL,4154.883,N,08002.592,W,194453.371,V*39
$GPRMC,194454.371,V,4154.883,N,08002.594,W,29.6,2.86,211118,,E*41
$GPGGA,194455.371,4154.883,N,08002.594,W,0,00,,,M,,M,,*59
$GPGLL,4154.883,N,08002.594,W,194456.371,V*3A
$GPRMC,194457.371,V,4154.882,N,08002.595,W,53.8,2.79,211118,,E*41
$GPGGA,194458.371,4154.882,N,08002.595,W,0,00,,,M,,M,,*54
$GPGLL,4154.882,N,08002.595,W,194459.371,V*35
$GPRMC,194500.371,V,4154.882,N,08002.597,W,91.5,2.81,211118,,E*44
$GPGGA,194501.371,4154.882,N,08002.597,W,0,00,,,M,,M,,*5B
$GPGLL,4154.882,N,08002.597,W,194502.371,V*38
$GPRMC,194503.371,V,4154.881,N,08002.599,W,95.9,2.77,211118,,E*4B
$GPGGA,194504.371,4154.881,N,08002.599,W,0,00,,,M,,M,,*53
$GPGLL,4154.881,N,08002.599,W,194505.371,V*32
$GPRMC,194506.371,V,4154.881,N,08002.601,W,62.3,2.81,211118,,E*47
$GPGGA,194507.371,4154.881,N,08002.601,W,0,00,,,M,,M,,*52
$GPGLL,4154.881,N,08002.601,W,194508.371,V*3D
$GPRMC,194509.371,V,4154.880,N,08002.602,W,6.7,2.85,211118,,E*78
$GPGGA,194510.371,4154.880,N,08002.602,W,0,00,,,M,,M,,*56
$GPGLL,4154.880,N,08002.602,W,194511.371,V*37
$GPRMC,194512.371,V,4154.880,N,08002.604,W,3.3,2.96,211118,,E*77
$GPGGA,194513.371,4154.880,N,08002.604,W,0,00,,,M,,M,,*53
$GPGLL,4154.880,N,08002.604,W,194514.371,V*34
$GPRMC,194515.371,V,4154.880,N,08002.606,W,67.7,2.85,211118,,E*46
$GPGGA,194516.371,4154.880,N,08002.606,W,0,00,,,M,,M,,*54
$GPGLL,4154.880,N,08002.606,W,194517.371,V*35